[
    {
        "province_name": "กรุงเทพมหานคร",
        "province_code": 10,
        "amphoes": [
            {
                "amphoe_name": "คลองสาน",
                "amphoe_code": 1018,
                "districts": [
                    {
                        "district_name": "คลองต้นไทร",
                        "district_code": 101804,
                        "zipcode": 10600,
                        "latitude": 13.725,
                        "longitude": 100.508
                    },
                    {
                        "district_name": "คลองสาน",
                        "district_code": 101599,
                        "zipcode": 10600,
                        "latitude": 13.735,
                        "longitude": 100.504
                    },
                    {
                        "district_name": "บางลำภูล่าง",
                        "district_code": 101803,
                        "zipcode": 10600,
                        "latitude": 13.715,
                        "longitude": 100.501
                    },
                    {
                        "district_name": "สมเด็จเจ้าพระยา",
                        "district_code": 101801,
                        "zipcode": 10600,
                        "latitude": 13.731,
                        "longitude": 100.497
                    }
                ]
            },
            {
                "amphoe_name": "คลองสามวา",
                "amphoe_code": 1046,
                "districts": [
                    {
                        "district_name": "ทรายกองดิน",
                        "district_code": 101004,
                        "zipcode": 10510,
                        "latitude": 13.854,
                        "longitude": 100.745
                    },
                    {
                        "district_name": "ทรายกองดินใต้",
                        "district_code": 101005,
                        "zipcode": 10510,
                        "latitude": 13.861,
                        "longitude": 100.786
                    },
                    {
                        "district_name": "บางชัน",
                        "district_code": 101003,
                        "zipcode": 10510,
                        "latitude": 13.839,
                        "longitude": 100.7
                    },
                    {
                        "district_name": "สามวาตะวันตก",
                        "district_code": 101007,
                        "zipcode": 10510,
                        "latitude": 13.889,
                        "longitude": 100.708
                    },
                    {
                        "district_name": "สามวาตะวันออก",
                        "district_code": 101006,
                        "zipcode": 10510,
                        "latitude": 13.896,
                        "longitude": 100.76
                    }
                ]
            },
            {
                "amphoe_name": "คลองเตย",
                "amphoe_code": 1033,
                "districts": [
                    {
                        "district_name": "คลองตัน",
                        "district_code": 100902,
                        "zipcode": 10110,
                        "latitude": 13.723,
                        "longitude": 100.571
                    },
                    {
                        "district_name": "คลองเตย",
                        "district_code": 100901,
                        "zipcode": 10110,
                        "latitude": 13.71,
                        "longitude": 100.57
                    },
                    {
                        "district_name": "พระโขนง",
                        "district_code": 100903,
                        "zipcode": 10110,
                        "latitude": 13.707,
                        "longitude": 100.595
                    },
                    {
                        "district_name": "พระโขนง",
                        "district_code": 100903,
                        "zipcode": 10260,
                        "latitude": 13.707,
                        "longitude": 100.595
                    }
                ]
            },
            {
                "amphoe_name": "คันนายาว",
                "amphoe_code": 1043,
                "districts": [
                    {
                        "district_name": "คันนายาว",
                        "district_code": 100606,
                        "zipcode": 10230,
                        "latitude": 13.821,
                        "longitude": 100.677
                    },
                    {
                        "district_name": "รามอินทรา",
                        "district_code": false,
                        "zipcode": 10230
                    }
                ]
            },
            {
                "amphoe_name": "จตุจักร",
                "amphoe_code": 1030,
                "districts": [
                    {
                        "district_name": "จตุจักร",
                        "district_code": 103005,
                        "zipcode": 10900
                    },
                    {
                        "district_name": "จอมพล",
                        "district_code": 103004,
                        "zipcode": 10900
                    },
                    {
                        "district_name": "จันทรเกษม",
                        "district_code": 103003,
                        "zipcode": 10900
                    },
                    {
                        "district_name": "ลาดยาว",
                        "district_code": 100501,
                        "zipcode": 10900,
                        "latitude": 13.826,
                        "longitude": 100.565
                    },
                    {
                        "district_name": "เสนานิคม",
                        "district_code": 103002,
                        "zipcode": 10900
                    }
                ]
            },
            {
                "amphoe_name": "จอมทอง",
                "amphoe_code": 1035,
                "districts": [
                    {
                        "district_name": "จอมทอง",
                        "district_code": 102102,
                        "zipcode": 10150,
                        "latitude": 13.693,
                        "longitude": 100.468
                    },
                    {
                        "district_name": "บางขุนเทียน",
                        "district_code": 102103,
                        "zipcode": 10150,
                        "latitude": 13.694,
                        "longitude": 100.45
                    },
                    {
                        "district_name": "บางค้อ",
                        "district_code": 102101,
                        "zipcode": 10150,
                        "latitude": 13.702,
                        "longitude": 100.476
                    },
                    {
                        "district_name": "บางมด",
                        "district_code": 102106,
                        "zipcode": 10150,
                        "latitude": 13.672,
                        "longitude": 100.468
                    }
                ]
            },
            {
                "amphoe_name": "ดอนเมือง",
                "amphoe_code": 1036,
                "districts": [
                    {
                        "district_name": "ดอนเมือง",
                        "district_code": false,
                        "zipcode": 10210
                    },
                    {
                        "district_name": "สนามบิน",
                        "district_code": false,
                        "zipcode": 10210
                    },
                    {
                        "district_name": "สีกัน",
                        "district_code": 100505,
                        "zipcode": 10210,
                        "latitude": 13.925,
                        "longitude": 100.593
                    }
                ]
            },
            {
                "amphoe_name": "ดินแดง",
                "amphoe_code": 1026,
                "districts": [
                    {
                        "district_name": "ดินแดง",
                        "district_code": 101703,
                        "zipcode": 10400,
                        "latitude": 13.778,
                        "longitude": 100.567
                    }
                ]
            },
            {
                "amphoe_name": "ดุสิต",
                "amphoe_code": 1002,
                "districts": [
                    {
                        "district_name": "ดุสิต",
                        "district_code": 100201,
                        "zipcode": 10300,
                        "latitude": 13.772,
                        "longitude": 100.513
                    },
                    {
                        "district_name": "ถนนนครไชยศรี",
                        "district_code": 100206,
                        "zipcode": 10300,
                        "latitude": 13.789,
                        "longitude": 100.522
                    },
                    {
                        "district_name": "วชิรพยาบาล",
                        "district_code": 100202,
                        "zipcode": 10300,
                        "latitude": 13.778,
                        "longitude": 100.505
                    },
                    {
                        "district_name": "สวนจิตรลดา",
                        "district_code": 100203,
                        "zipcode": 10300,
                        "latitude": 13.767,
                        "longitude": 100.52
                    },
                    {
                        "district_name": "สวนจิตรลดา",
                        "district_code": 100203,
                        "zipcode": 10303,
                        "latitude": 13.767,
                        "longitude": 100.52
                    },
                    {
                        "district_name": "สี่แยกมหานาค",
                        "district_code": 100204,
                        "zipcode": 10300,
                        "latitude": 13.758,
                        "longitude": 100.517
                    }
                ]
            },
            {
                "amphoe_name": "ตลิ่งชัน",
                "amphoe_code": 1019,
                "districts": [
                    {
                        "district_name": "คลองชักพระ",
                        "district_code": 101901,
                        "zipcode": 10170,
                        "latitude": 13.76,
                        "longitude": 100.456
                    },
                    {
                        "district_name": "ฉิมพลี",
                        "district_code": 101903,
                        "zipcode": 10170,
                        "latitude": 13.786,
                        "longitude": 100.432
                    },
                    {
                        "district_name": "ตลิ่งชัน",
                        "district_code": 101902,
                        "zipcode": 10170,
                        "latitude": 13.789,
                        "longitude": 100.459
                    },
                    {
                        "district_name": "บางพรม",
                        "district_code": 101904,
                        "zipcode": 10170,
                        "latitude": 13.752,
                        "longitude": 100.442
                    },
                    {
                        "district_name": "บางระมาด",
                        "district_code": 101905,
                        "zipcode": 10170,
                        "latitude": 13.767,
                        "longitude": 100.431
                    },
                    {
                        "district_name": "บางเชือกหนัง",
                        "district_code": 101907,
                        "zipcode": 10170,
                        "latitude": 13.751,
                        "longitude": 100.419
                    }
                ]
            },
            {
                "amphoe_name": "ทวีวัฒนา",
                "amphoe_code": 1048,
                "districts": [
                    {
                        "district_name": "ทวีวัฒนา",
                        "district_code": 101906,
                        "zipcode": 10170,
                        "latitude": 13.758,
                        "longitude": 100.348
                    },
                    {
                        "district_name": "ศาลาธรรมสพน์",
                        "district_code": 101908,
                        "zipcode": 10170,
                        "latitude": 13.783,
                        "longitude": 100.39
                    }
                ]
            },
            {
                "amphoe_name": "ทุ่งครุ",
                "amphoe_code": 1049,
                "districts": [
                    {
                        "district_name": "ทุ่งครุ",
                        "district_code": 102404,
                        "zipcode": 10140,
                        "latitude": 13.614,
                        "longitude": 100.497
                    },
                    {
                        "district_name": "บางมด",
                        "district_code": 102106,
                        "zipcode": 10140,
                        "latitude": 13.651,
                        "longitude": 100.51
                    }
                ]
            },
            {
                "amphoe_name": "ธนบุรี",
                "amphoe_code": 1015,
                "districts": [
                    {
                        "district_name": "ดาวคะนอง",
                        "district_code": 101506,
                        "zipcode": 10600
                    },
                    {
                        "district_name": "ตลาดพลู",
                        "district_code": 101505,
                        "zipcode": 10600,
                        "latitude": 13.715,
                        "longitude": 100.473
                    },
                    {
                        "district_name": "บางยี่เรือ",
                        "district_code": 101503,
                        "zipcode": 10600,
                        "latitude": 13.72,
                        "longitude": 100.482
                    },
                    {
                        "district_name": "บุคคโล",
                        "district_code": 101504,
                        "zipcode": 10600,
                        "latitude": 13.707,
                        "longitude": 100.486
                    },
                    {
                        "district_name": "วัดกัลยาณ์",
                        "district_code": 101501,
                        "zipcode": 10600,
                        "latitude": 13.737,
                        "longitude": 100.493
                    },
                    {
                        "district_name": "สำเหร่",
                        "district_code": 101507,
                        "zipcode": 10600
                    },
                    {
                        "district_name": "หิรัญรูจี",
                        "district_code": 101502,
                        "zipcode": 10600,
                        "latitude": 13.731,
                        "longitude": 100.49
                    }
                ]
            },
            {
                "amphoe_name": "บางกอกน้อย",
                "amphoe_code": 1020,
                "districts": [
                    {
                        "district_name": "บางขุนนนท์",
                        "district_code": 102006,
                        "zipcode": 10700,
                        "latitude": 13.774,
                        "longitude": 100.466
                    },
                    {
                        "district_name": "บางขุนศรี",
                        "district_code": 102007,
                        "zipcode": 10700,
                        "latitude": 13.76,
                        "longitude": 100.463
                    },
                    {
                        "district_name": "บ้านช่างหล่อ",
                        "district_code": 102005,
                        "zipcode": 10700,
                        "latitude": 13.752,
                        "longitude": 100.477
                    },
                    {
                        "district_name": "ศิริราช",
                        "district_code": 102004,
                        "zipcode": 10700,
                        "latitude": 13.759,
                        "longitude": 100.481
                    },
                    {
                        "district_name": "อรุณอัมรินทร์",
                        "district_code": false,
                        "zipcode": 10700
                    }
                ]
            },
            {
                "amphoe_name": "บางกอกใหญ่",
                "amphoe_code": 1016,
                "districts": [
                    {
                        "district_name": "วัดท่าพระ",
                        "district_code": 101602,
                        "zipcode": 10600,
                        "latitude": 13.733,
                        "longitude": 100.475
                    },
                    {
                        "district_name": "วัดอรุณ",
                        "district_code": 101601,
                        "zipcode": 10600,
                        "latitude": 13.743,
                        "longitude": 100.486
                    }
                ]
            },
            {
                "amphoe_name": "บางกะปิ",
                "amphoe_code": 1006,
                "districts": [
                    {
                        "district_name": "คลองจั่น",
                        "district_code": 100601,
                        "zipcode": 10240,
                        "latitude": 13.786,
                        "longitude": 100.635
                    },
                    {
                        "district_name": "หัวหมาก",
                        "district_code": 100608,
                        "zipcode": 10240,
                        "latitude": 13.756,
                        "longitude": 100.66
                    },
                    {
                        "district_name": "หัวหมาก",
                        "district_code": 100608,
                        "zipcode": 10250,
                        "latitude": 13.756,
                        "longitude": 100.66
                    }
                ]
            },
            {
                "amphoe_name": "บางขุนเทียน",
                "amphoe_code": 1021,
                "districts": [
                    {
                        "district_name": "ท่าข้าม",
                        "district_code": 102105,
                        "zipcode": 10150,
                        "latitude": 13.555,
                        "longitude": 100.434
                    },
                    {
                        "district_name": "แสมดำ",
                        "district_code": 102107,
                        "zipcode": 10150,
                        "latitude": 13.605,
                        "longitude": 100.395
                    }
                ]
            },
            {
                "amphoe_name": "บางคอแหลม",
                "amphoe_code": 1031,
                "districts": [
                    {
                        "district_name": "บางคอแหลม",
                        "district_code": 101207,
                        "zipcode": 10120,
                        "latitude": 13.696,
                        "longitude": 100.494
                    },
                    {
                        "district_name": "บางโคล่",
                        "district_code": 101206,
                        "zipcode": 10120,
                        "latitude": 13.694,
                        "longitude": 100.516
                    },
                    {
                        "district_name": "วัดพระยาไกร",
                        "district_code": 101205,
                        "zipcode": 10120,
                        "latitude": 13.706,
                        "longitude": 100.508
                    }
                ]
            },
            {
                "amphoe_name": "บางซื่อ",
                "amphoe_code": 1029,
                "districts": [
                    {
                        "district_name": "บางซื่อ",
                        "district_code": 100205,
                        "zipcode": 10800,
                        "latitude": 13.82,
                        "longitude": 100.529
                    },
                    {
                        "district_name": "วงศ์สว่าง",
                        "district_code": false,
                        "zipcode": 10800
                    }
                ]
            },
            {
                "amphoe_name": "บางนา",
                "amphoe_code": 1047,
                "districts": [
                    {
                        "district_name": "บางนาเหนือ",
                        "district_code": 100904,
                        "zipcode": 10260
                    },
                    {
                        "district_name": "บางนาใต้",
                        "district_code": 100904,
                        "zipcode": 10260
                    }
                ]
            },
            {
                "amphoe_name": "บางบอน",
                "amphoe_code": 1050,
                "districts": [
                    {
                        "district_name": "บางบอน",
                        "district_code": 102104,
                        "zipcode": 10150,
                        "latitude": 13.646,
                        "longitude": 100.37
                    }
                ]
            },
            {
                "amphoe_name": "บางพลัด",
                "amphoe_code": 1025,
                "districts": [
                    {
                        "district_name": "บางบำหรุ",
                        "district_code": 102002,
                        "zipcode": 10700,
                        "latitude": 13.781,
                        "longitude": 100.482
                    },
                    {
                        "district_name": "บางพลัด",
                        "district_code": 102001,
                        "zipcode": 10700,
                        "latitude": 13.791,
                        "longitude": 100.487
                    },
                    {
                        "district_name": "บางยี่ขัน",
                        "district_code": 102008,
                        "zipcode": 10700,
                        "latitude": 13.774,
                        "longitude": 100.492
                    },
                    {
                        "district_name": "บางอ้อ",
                        "district_code": 102003,
                        "zipcode": 10700,
                        "latitude": 13.802,
                        "longitude": 100.512
                    }
                ]
            },
            {
                "amphoe_name": "บางรัก",
                "amphoe_code": 1004,
                "districts": [
                    {
                        "district_name": "บางรัก",
                        "district_code": 100404,
                        "zipcode": 10500,
                        "latitude": 13.727,
                        "longitude": 100.527
                    },
                    {
                        "district_name": "มหาพฤฒาราม",
                        "district_code": 100401,
                        "zipcode": 10500,
                        "latitude": 13.734,
                        "longitude": 100.52
                    },
                    {
                        "district_name": "สีลม",
                        "district_code": 100402,
                        "zipcode": 10500,
                        "latitude": 13.73,
                        "longitude": 100.525
                    },
                    {
                        "district_name": "สี่พระยา",
                        "district_code": 100405,
                        "zipcode": 10500,
                        "latitude": 13.725,
                        "longitude": 100.514
                    },
                    {
                        "district_name": "สุริยวงศ์",
                        "district_code": 100403,
                        "zipcode": 10500,
                        "latitude": 13.724,
                        "longitude": 100.53
                    }
                ]
            },
            {
                "amphoe_name": "บางเขน",
                "amphoe_code": 1005,
                "districts": [
                    {
                        "district_name": "ท่าแร้ง",
                        "district_code": 100508,
                        "zipcode": 10220,
                        "latitude": 13.866,
                        "longitude": 100.65
                    },
                    {
                        "district_name": "ท่าแร้ง",
                        "district_code": 100508,
                        "zipcode": 10230,
                        "latitude": 13.866,
                        "longitude": 100.65
                    },
                    {
                        "district_name": "อนุสาวรีย์",
                        "district_code": 100502,
                        "zipcode": 10220,
                        "latitude": 13.868,
                        "longitude": 100.606
                    }
                ]
            },
            {
                "amphoe_name": "บางแค",
                "amphoe_code": 1040,
                "districts": [
                    {
                        "district_name": "บางแค",
                        "district_code": 102203,
                        "zipcode": 10160,
                        "latitude": 13.698,
                        "longitude": 100.409
                    },
                    {
                        "district_name": "บางแคเหนือ",
                        "district_code": 102204,
                        "zipcode": 10160,
                        "latitude": 13.72,
                        "longitude": 100.4
                    },
                    {
                        "district_name": "บางไผ่",
                        "district_code": 102205,
                        "zipcode": 10160,
                        "latitude": 13.741,
                        "longitude": 100.385
                    },
                    {
                        "district_name": "หลักสอง",
                        "district_code": 102301,
                        "zipcode": 10160,
                        "latitude": 13.683,
                        "longitude": 100.396
                    }
                ]
            },
            {
                "amphoe_name": "บึงกุ่ม",
                "amphoe_code": 1027,
                "districts": [
                    {
                        "district_name": "คลองกุ่ม",
                        "district_code": 100604,
                        "zipcode": 10230,
                        "latitude": 13.808,
                        "longitude": 100.65
                    },
                    {
                        "district_name": "คลองกุ่ม",
                        "district_code": 100604,
                        "zipcode": 10240,
                        "latitude": 13.808,
                        "longitude": 100.65
                    },
                    {
                        "district_name": "นวมินทร์",
                        "district_code": false,
                        "zipcode": 10230
                    },
                    {
                        "district_name": "นวลจันทร์",
                        "district_code": false,
                        "zipcode": 10230
                    }
                ]
            },
            {
                "amphoe_name": "ปทุมวัน",
                "amphoe_code": 1007,
                "districts": [
                    {
                        "district_name": "ปทุมวัน",
                        "district_code": 100703,
                        "zipcode": 10330,
                        "latitude": 13.74,
                        "longitude": 100.535
                    },
                    {
                        "district_name": "รองเมือง",
                        "district_code": 100701,
                        "zipcode": 10330,
                        "latitude": 13.744,
                        "longitude": 100.52
                    },
                    {
                        "district_name": "ลุมพินี",
                        "district_code": 100704,
                        "zipcode": 10330,
                        "latitude": 13.736,
                        "longitude": 100.546
                    },
                    {
                        "district_name": "วังใหม่",
                        "district_code": 100702,
                        "zipcode": 10330,
                        "latitude": 13.742,
                        "longitude": 100.526
                    },
                    {
                        "district_name": "วังใหม่",
                        "district_code": 100702,
                        "zipcode": 10110,
                        "latitude": 13.742,
                        "longitude": 100.526
                    },
                    {
                        "district_name": "วังใหม่",
                        "district_code": 100702,
                        "zipcode": 10120,
                        "latitude": 13.742,
                        "longitude": 100.526
                    },
                    {
                        "district_name": "วังใหม่",
                        "district_code": 100702,
                        "zipcode": 10400,
                        "latitude": 13.742,
                        "longitude": 100.526
                    },
                    {
                        "district_name": "วังใหม่",
                        "district_code": 100702,
                        "zipcode": 10500,
                        "latitude": 13.742,
                        "longitude": 100.526
                    }
                ]
            },
            {
                "amphoe_name": "ประเวศ",
                "amphoe_code": 1032,
                "districts": [
                    {
                        "district_name": "ดอกไม้",
                        "district_code": 100909,
                        "zipcode": 10250,
                        "latitude": 13.68,
                        "longitude": 100.689
                    },
                    {
                        "district_name": "ประเวศ",
                        "district_code": 100908,
                        "zipcode": 10250,
                        "latitude": 13.719,
                        "longitude": 100.664
                    },
                    {
                        "district_name": "หนองบอน",
                        "district_code": 100907,
                        "zipcode": 10250,
                        "latitude": 13.687,
                        "longitude": 100.656
                    }
                ]
            },
            {
                "amphoe_name": "ป้อมปราบศัตรูพ่าย",
                "amphoe_code": 1008,
                "districts": [
                    {
                        "district_name": "คลองมหานาค",
                        "district_code": 100803,
                        "zipcode": 10100,
                        "latitude": 13.753,
                        "longitude": 100.513
                    },
                    {
                        "district_name": "บ้านบาตร",
                        "district_code": 100804,
                        "zipcode": 10100,
                        "latitude": 13.752,
                        "longitude": 100.507
                    },
                    {
                        "district_name": "ป้อมปราบ",
                        "district_code": 100801,
                        "zipcode": 10100,
                        "latitude": 13.743,
                        "longitude": 100.514
                    },
                    {
                        "district_name": "วัดเทพศิรินทร์",
                        "district_code": 100802,
                        "zipcode": 10100,
                        "latitude": 13.749,
                        "longitude": 100.512
                    },
                    {
                        "district_name": "วัดโสมนัส",
                        "district_code": 100805,
                        "zipcode": 10100,
                        "latitude": 13.759,
                        "longitude": 100.511
                    }
                ]
            },
            {
                "amphoe_name": "พญาไท",
                "amphoe_code": 1014,
                "districts": [
                    {
                        "district_name": "สามเสนใน",
                        "district_code": 100299,
                        "zipcode": 10400,
                        "latitude": 13.782,
                        "longitude": 100.545
                    }
                ]
            },
            {
                "amphoe_name": "พระนคร",
                "amphoe_code": 1001,
                "districts": [
                    {
                        "district_name": "ชนะสงคราม",
                        "district_code": 100109,
                        "zipcode": 10200,
                        "latitude": 13.762,
                        "longitude": 100.495
                    },
                    {
                        "district_name": "ตลาดยอด",
                        "district_code": 100108,
                        "zipcode": 10200,
                        "latitude": 13.76,
                        "longitude": 100.498
                    },
                    {
                        "district_name": "บวรนิเวศ",
                        "district_code": 100107,
                        "zipcode": 10200,
                        "latitude": 13.757,
                        "longitude": 100.501
                    },
                    {
                        "district_name": "บางขุนพรหม",
                        "district_code": 100111,
                        "zipcode": 10200,
                        "latitude": 13.765,
                        "longitude": 100.505
                    },
                    {
                        "district_name": "บ้านพานถม",
                        "district_code": 100110,
                        "zipcode": 10200,
                        "latitude": 13.762,
                        "longitude": 100.503
                    },
                    {
                        "district_name": "พระบรมมหาราชวัง",
                        "district_code": 100101,
                        "zipcode": 10200,
                        "latitude": 13.751,
                        "longitude": 100.492
                    },
                    {
                        "district_name": "วังบูรพาภิรมย์",
                        "district_code": 100102,
                        "zipcode": 10200,
                        "latitude": 13.744,
                        "longitude": 100.499
                    },
                    {
                        "district_name": "วัดราชบพิธ",
                        "district_code": 100103,
                        "zipcode": 10200,
                        "latitude": 13.75,
                        "longitude": 100.499
                    },
                    {
                        "district_name": "วัดสามพระยา",
                        "district_code": 100112,
                        "zipcode": 10200,
                        "latitude": 13.768,
                        "longitude": 100.499
                    },
                    {
                        "district_name": "ศาลเจ้าพ่อเสือ",
                        "district_code": 100105,
                        "zipcode": 10200,
                        "latitude": 13.754,
                        "longitude": 100.497
                    },
                    {
                        "district_name": "สำราญราษฎร์",
                        "district_code": 100104,
                        "zipcode": 10200,
                        "latitude": 13.751,
                        "longitude": 100.503
                    },
                    {
                        "district_name": "เสาชิงช้า",
                        "district_code": 100106,
                        "zipcode": 10200,
                        "latitude": 13.753,
                        "longitude": 100.5
                    }
                ]
            },
            {
                "amphoe_name": "พระโขนง",
                "amphoe_code": 1009,
                "districts": [
                    {
                        "district_name": "บางจาก",
                        "district_code": 100905,
                        "zipcode": 10260,
                        "latitude": 13.692,
                        "longitude": 100.626
                    }
                ]
            },
            {
                "amphoe_name": "ภาษีเจริญ",
                "amphoe_code": 1022,
                "districts": [
                    {
                        "district_name": "คลองขวาง",
                        "district_code": 102208,
                        "zipcode": 10160,
                        "latitude": 13.738,
                        "longitude": 100.423
                    },
                    {
                        "district_name": "คูหาสวรรค์",
                        "district_code": 102210,
                        "zipcode": 10160,
                        "latitude": 13.727,
                        "longitude": 100.457
                    },
                    {
                        "district_name": "บางจาก",
                        "district_code": 100905,
                        "zipcode": 10160,
                        "latitude": 13.692,
                        "longitude": 100.626
                    },
                    {
                        "district_name": "บางด้วน",
                        "district_code": 102202,
                        "zipcode": 10160,
                        "latitude": 13.723,
                        "longitude": 100.437
                    },
                    {
                        "district_name": "บางหว้า",
                        "district_code": 102201,
                        "zipcode": 10160,
                        "latitude": 13.714,
                        "longitude": 100.443
                    },
                    {
                        "district_name": "บางแวก",
                        "district_code": 102207,
                        "zipcode": 10160,
                        "latitude": 13.736,
                        "longitude": 100.445
                    },
                    {
                        "district_name": "ปากคลองภาษีเจริญ",
                        "district_code": 102209,
                        "zipcode": 10160,
                        "latitude": 13.722,
                        "longitude": 100.464
                    }
                ]
            },
            {
                "amphoe_name": "มีนบุรี",
                "amphoe_code": 1010,
                "districts": [
                    {
                        "district_name": "มีนบุรี",
                        "district_code": 101001,
                        "zipcode": 10510,
                        "latitude": 13.804,
                        "longitude": 100.723
                    },
                    {
                        "district_name": "แสนแสบ",
                        "district_code": 101002,
                        "zipcode": 10510,
                        "latitude": 13.812,
                        "longitude": 100.774
                    }
                ]
            },
            {
                "amphoe_name": "ยานนาวา",
                "amphoe_code": 1012,
                "districts": [
                    {
                        "district_name": "ช่องนนทรี",
                        "district_code": 101203,
                        "zipcode": 10120,
                        "latitude": 13.682,
                        "longitude": 100.533
                    },
                    {
                        "district_name": "บางโพงพาง",
                        "district_code": 101204,
                        "zipcode": 10120,
                        "latitude": 13.697,
                        "longitude": 100.544
                    }
                ]
            },
            {
                "amphoe_name": "ราชเทวี",
                "amphoe_code": 1037,
                "districts": [
                    {
                        "district_name": "ถนนพญาไท",
                        "district_code": 101405,
                        "zipcode": 10400,
                        "latitude": 13.757,
                        "longitude": 100.538
                    },
                    {
                        "district_name": "ถนนเพชรบุรี",
                        "district_code": 101402,
                        "zipcode": 10400,
                        "latitude": 13.752,
                        "longitude": 100.559
                    },
                    {
                        "district_name": "ทุ่งพญาไท",
                        "district_code": 101403,
                        "zipcode": 10400,
                        "latitude": 13.763,
                        "longitude": 100.53
                    },
                    {
                        "district_name": "มักกะสัน",
                        "district_code": 101404,
                        "zipcode": 10400,
                        "latitude": 13.752,
                        "longitude": 100.528
                    }
                ]
            },
            {
                "amphoe_name": "ราษฎร์บูรณะ",
                "amphoe_code": 1024,
                "districts": [
                    {
                        "district_name": "บางปะกอก",
                        "district_code": 102402,
                        "zipcode": 10140,
                        "latitude": 13.675,
                        "longitude": 100.491
                    },
                    {
                        "district_name": "ราษฎร์บูรณะ",
                        "district_code": 102401,
                        "zipcode": 10140,
                        "latitude": 13.67,
                        "longitude": 100.51
                    }
                ]
            },
            {
                "amphoe_name": "ลาดกระบัง",
                "amphoe_code": 1011,
                "districts": [
                    {
                        "district_name": "ขุมทอง",
                        "district_code": 101106,
                        "zipcode": 10520,
                        "latitude": 13.736,
                        "longitude": 100.855
                    },
                    {
                        "district_name": "คลองสองต้นนุ่น",
                        "district_code": 101102,
                        "zipcode": 10520,
                        "latitude": 13.753,
                        "longitude": 100.723
                    },
                    {
                        "district_name": "คลองสามประเวศ",
                        "district_code": 101103,
                        "zipcode": 10520,
                        "latitude": 13.753,
                        "longitude": 100.754
                    },
                    {
                        "district_name": "ทับยาว",
                        "district_code": 101105,
                        "zipcode": 10520,
                        "latitude": 13.728,
                        "longitude": 100.815
                    },
                    {
                        "district_name": "ลาดกระบัง",
                        "district_code": 101101,
                        "zipcode": 10520,
                        "latitude": 13.723,
                        "longitude": 100.771
                    },
                    {
                        "district_name": "ลำปลาทิว",
                        "district_code": 101104,
                        "zipcode": 10520,
                        "latitude": 13.765,
                        "longitude": 100.817
                    }
                ]
            },
            {
                "amphoe_name": "ลาดพร้าว",
                "amphoe_code": 1038,
                "districts": [
                    {
                        "district_name": "จรเข้บัว",
                        "district_code": 100607,
                        "zipcode": 10230,
                        "latitude": 13.84,
                        "longitude": 100.6
                    },
                    {
                        "district_name": "ลาดพร้าว",
                        "district_code": 100603,
                        "zipcode": 10230,
                        "latitude": 13.811,
                        "longitude": 100.612
                    }
                ]
            },
            {
                "amphoe_name": "วังทองหลาง",
                "amphoe_code": 1045,
                "districts": [
                    {
                        "district_name": "คลองเจ้าคุณสิงห์",
                        "district_code": false,
                        "zipcode": 10310
                    },
                    {
                        "district_name": "พลับพลา",
                        "district_code": false,
                        "zipcode": 10310
                    },
                    {
                        "district_name": "วังทองหลาง",
                        "district_code": 100602,
                        "zipcode": 10310,
                        "latitude": 13.779,
                        "longitude": 100.609
                    },
                    {
                        "district_name": "สะพานสอง",
                        "district_code": false,
                        "zipcode": 10310
                    }
                ]
            },
            {
                "amphoe_name": "วัฒนา",
                "amphoe_code": 1039,
                "districts": [
                    {
                        "district_name": "คลองตันเหนือ",
                        "district_code": 103305,
                        "zipcode": 10110,
                        "latitude": 13.736,
                        "longitude": 100.576
                    },
                    {
                        "district_name": "คลองเตยเหนือ",
                        "district_code": 103304,
                        "zipcode": 10110,
                        "latitude": 13.743,
                        "longitude": 100.56
                    },
                    {
                        "district_name": "พระโขนงเหนือ",
                        "district_code": 103306,
                        "zipcode": 10110,
                        "latitude": 13.719,
                        "longitude": 100.596
                    },
                    {
                        "district_name": "พระโขนงเหนือ",
                        "district_code": 103306,
                        "zipcode": 10260,
                        "latitude": 13.719,
                        "longitude": 100.596
                    }
                ]
            },
            {
                "amphoe_name": "สวนหลวง",
                "amphoe_code": 1034,
                "districts": [
                    {
                        "district_name": "สวนหลวง",
                        "district_code": 100906,
                        "zipcode": 10250,
                        "latitude": 13.726,
                        "longitude": 100.628
                    },
                    {
                        "district_name": "อ่อนนุช",
                        "district_code": 103400,
                        "zipcode": 10250
                    },
                    {
                        "district_name": "พัฒนาการ",
                        "district_code": 103403,
                        "zipcode": 10250
                    }
                ]
            },
            {
                "amphoe_name": "สะพานสูง",
                "amphoe_code": 1044,
                "districts": [
                    {
                        "district_name": "สะพานสูง",
                        "district_code": 100605,
                        "zipcode": 10240,
                        "latitude": 13.761,
                        "longitude": 100.688
                    },
                    {
                        "district_name": "สะพานสูง",
                        "district_code": 100605,
                        "zipcode": 10250,
                        "latitude": 13.761,
                        "longitude": 100.688
                    },
                    {
                        "district_name": "ราษฎร์พัฒนา",
                        "district_code": 104402,
                        "zipcode": 10240
                    },
                    {
                        "district_name": "ทับช้าง",
                        "district_code": 104403,
                        "zipcode": 10250
                    }
                ]
            },
            {
                "amphoe_name": "สัมพันธวงศ์",
                "amphoe_code": 1013,
                "districts": [
                    {
                        "district_name": "จักรวรรดิ์",
                        "district_code": false,
                        "zipcode": 10100
                    },
                    {
                        "district_name": "ตลาดน้อย",
                        "district_code": 101303,
                        "zipcode": 10100,
                        "latitude": 13.734,
                        "longitude": 100.513
                    },
                    {
                        "district_name": "สัมพันธวงศ์",
                        "district_code": 101302,
                        "zipcode": 10100,
                        "latitude": 13.739,
                        "longitude": 100.511
                    }
                ]
            },
            {
                "amphoe_name": "สาทร",
                "amphoe_code": 1028,
                "districts": [
                    {
                        "district_name": "ทุ่งมหาเมฆ",
                        "district_code": 101208,
                        "zipcode": 10120,
                        "latitude": 13.718,
                        "longitude": 100.541
                    },
                    {
                        "district_name": "ทุ่งวัดดอน",
                        "district_code": 101201,
                        "zipcode": 10120,
                        "latitude": 13.71,
                        "longitude": 100.532
                    },
                    {
                        "district_name": "ยานนาวา",
                        "district_code": 101202,
                        "zipcode": 10120,
                        "latitude": 13.714,
                        "longitude": 100.514
                    }
                ]
            },
            {
                "amphoe_name": "สายไหม",
                "amphoe_code": 1042,
                "districts": [
                    {
                        "district_name": "คลองถนน",
                        "district_code": 100503,
                        "zipcode": 10220,
                        "latitude": 13.898,
                        "longitude": 100.63
                    },
                    {
                        "district_name": "สายไหม",
                        "district_code": 100506,
                        "zipcode": 10220,
                        "latitude": 13.921,
                        "longitude": 100.654
                    },
                    {
                        "district_name": "ออเงิน",
                        "district_code": 100509,
                        "zipcode": 10220,
                        "latitude": 13.896,
                        "longitude": 100.672
                    }
                ]
            },
            {
                "amphoe_name": "หนองจอก",
                "amphoe_code": 1003,
                "districts": [
                    {
                        "district_name": "กระทุ่มราย",
                        "district_code": 100301,
                        "zipcode": 10530,
                        "latitude": 13.823,
                        "longitude": 100.897
                    },
                    {
                        "district_name": "คลองสิบ",
                        "district_code": 100303,
                        "zipcode": 10530,
                        "latitude": 13.914,
                        "longitude": 100.82
                    },
                    {
                        "district_name": "คลองสิบสอง",
                        "district_code": 100304,
                        "zipcode": 10530,
                        "latitude": 13.914,
                        "longitude": 100.88
                    },
                    {
                        "district_name": "คู้ฝั่งเหนือ",
                        "district_code": 100306,
                        "zipcode": 10530,
                        "latitude": 13.872,
                        "longitude": 100.81
                    },
                    {
                        "district_name": "ลำต้อยติ่ง",
                        "district_code": 100308,
                        "zipcode": 10530,
                        "latitude": 13.781,
                        "longitude": 100.877
                    },
                    {
                        "district_name": "ลำผักชี",
                        "district_code": 100307,
                        "zipcode": 10530,
                        "latitude": 13.797,
                        "longitude": 100.844
                    },
                    {
                        "district_name": "หนองจอก",
                        "district_code": 100302,
                        "zipcode": 10530,
                        "latitude": 13.869,
                        "longitude": 100.885
                    },
                    {
                        "district_name": "โคกแฝด",
                        "district_code": 100305,
                        "zipcode": 10530,
                        "latitude": 13.84,
                        "longitude": 100.836
                    }
                ]
            },
            {
                "amphoe_name": "หนองแขม",
                "amphoe_code": 1023,
                "districts": [
                    {
                        "district_name": "หนองค้างพลู",
                        "district_code": 102303,
                        "zipcode": 10160,
                        "latitude": 13.714,
                        "longitude": 100.351
                    },
                    {
                        "district_name": "หนองแขม",
                        "district_code": 102302,
                        "zipcode": 10160,
                        "latitude": 13.68,
                        "longitude": 100.358
                    }
                ]
            },
            {
                "amphoe_name": "หลักสี่",
                "amphoe_code": 1041,
                "districts": [
                    {
                        "district_name": "ตลาดบางเขน",
                        "district_code": 100504,
                        "zipcode": 10210,
                        "latitude": 13.871,
                        "longitude": 100.58
                    },
                    {
                        "district_name": "ทุ่งสองห้อง",
                        "district_code": 100507,
                        "zipcode": 10210,
                        "latitude": 13.883,
                        "longitude": 100.564
                    }
                ]
            },
            {
                "amphoe_name": "ห้วยขวาง",
                "amphoe_code": 1017,
                "districts": [
                    {
                        "district_name": "บางกะปิ",
                        "district_code": 101702,
                        "zipcode": 10310,
                        "latitude": 13.752,
                        "longitude": 100.586
                    },
                    {
                        "district_name": "สามเสนนอก",
                        "district_code": 101704,
                        "zipcode": 10310,
                        "latitude": 13.796,
                        "longitude": 100.579
                    },
                    {
                        "district_name": "ห้วยขวาง",
                        "district_code": 101701,
                        "zipcode": 10310,
                        "latitude": 13.769,
                        "longitude": 100.577
                    }
                ]
            }
        ]
    },
    {
        "province_name": "สมุทรปราการ",
        "province_code": 11,
        "amphoes": [
            {
                "amphoe_name": "บางบ่อ",
                "amphoe_code": 1102,
                "districts": [
                    {
                        "district_name": "คลองด่าน",
                        "district_code": 110205,
                        "zipcode": 10550,
                        "latitude": 13.511,
                        "longitude": 100.835
                    },
                    {
                        "district_name": "คลองนิยมยาตรา",
                        "district_code": 110208,
                        "zipcode": 10560,
                        "latitude": 13.624,
                        "longitude": 100.935
                    },
                    {
                        "district_name": "คลองสวน",
                        "district_code": 110206,
                        "zipcode": 10560,
                        "latitude": 13.659,
                        "longitude": 100.925
                    },
                    {
                        "district_name": "บางบ่อ",
                        "district_code": 110201,
                        "zipcode": 10560,
                        "latitude": 13.611,
                        "longitude": 100.862
                    },
                    {
                        "district_name": "บางพลีน้อย",
                        "district_code": 110203,
                        "zipcode": 10560,
                        "latitude": 13.574,
                        "longitude": 100.9
                    },
                    {
                        "district_name": "บางเพรียง",
                        "district_code": 110204,
                        "zipcode": 10560,
                        "latitude": 13.545,
                        "longitude": 100.805
                    },
                    {
                        "district_name": "บ้านระกาศ",
                        "district_code": 110202,
                        "zipcode": 10560,
                        "latitude": 13.639,
                        "longitude": 100.904
                    },
                    {
                        "district_name": "เปร็ง",
                        "district_code": 110207,
                        "zipcode": 10560,
                        "latitude": 13.672,
                        "longitude": 100.881
                    }
                ]
            },
            {
                "amphoe_name": "บางพลี",
                "amphoe_code": 1103,
                "districts": [
                    {
                        "district_name": "บางปลา",
                        "district_code": 110303,
                        "zipcode": 10540,
                        "latitude": 13.561,
                        "longitude": 100.739
                    },
                    {
                        "district_name": "บางพลีใหญ่",
                        "district_code": 110301,
                        "zipcode": 10540,
                        "latitude": 13.618,
                        "longitude": 100.694
                    },
                    {
                        "district_name": "บางแก้ว",
                        "district_code": 110302,
                        "zipcode": 10540,
                        "latitude": 13.642,
                        "longitude": 100.662
                    },
                    {
                        "district_name": "บางโฉลง",
                        "district_code": 110304,
                        "zipcode": 10540,
                        "latitude": 13.623,
                        "longitude": 100.755
                    },
                    {
                        "district_name": "ราชาเทวะ",
                        "district_code": 110308,
                        "zipcode": 10540,
                        "latitude": 13.681,
                        "longitude": 100.733
                    },
                    {
                        "district_name": "หนองปรือ",
                        "district_code": 110309,
                        "zipcode": 10540,
                        "latitude": 13.678,
                        "longitude": 100.75
                    }
                ]
            },
            {
                "amphoe_name": "บางเสาธง",
                "amphoe_code": 1106,
                "districts": [
                    {
                        "district_name": "บางเสาธง",
                        "district_code": 110305,
                        "zipcode": 10570,
                        "latitude": 13.6,
                        "longitude": 100.815
                    },
                    {
                        "district_name": "ศีรษะจรเข้น้อย",
                        "district_code": 110602,
                        "zipcode": 10570,
                        "latitude": 13.689,
                        "longitude": 100.799
                    },
                    {
                        "district_name": "ศีรษะจรเข้ใหญ่",
                        "district_code": 110603,
                        "zipcode": 10570,
                        "latitude": 13.641,
                        "longitude": 100.803
                    }
                ]
            },
            {
                "amphoe_name": "พระประแดง",
                "amphoe_code": 1104,
                "districts": [
                    {
                        "district_name": "ตลาด",
                        "district_code": 110401,
                        "zipcode": 10130,
                        "latitude": 13.656,
                        "longitude": 100.533
                    },
                    {
                        "district_name": "ทรงคนอง",
                        "district_code": 110413,
                        "zipcode": 10130,
                        "latitude": 13.665,
                        "longitude": 100.545
                    },
                    {
                        "district_name": "บางกระสอบ",
                        "district_code": 110411,
                        "zipcode": 10130,
                        "latitude": 13.666,
                        "longitude": 100.566
                    },
                    {
                        "district_name": "บางกอบัว",
                        "district_code": 110412,
                        "zipcode": 10130,
                        "latitude": 13.693,
                        "longitude": 100.577
                    },
                    {
                        "district_name": "บางกะเจ้า",
                        "district_code": 110409,
                        "zipcode": 10130,
                        "latitude": 13.697,
                        "longitude": 100.561
                    },
                    {
                        "district_name": "บางครุ",
                        "district_code": 110404,
                        "zipcode": 10130,
                        "latitude": 13.631,
                        "longitude": 100.526
                    },
                    {
                        "district_name": "บางจาก",
                        "district_code": 110403,
                        "zipcode": 10130,
                        "latitude": 13.616,
                        "longitude": 100.536
                    },
                    {
                        "district_name": "บางน้ำผึ้ง",
                        "district_code": 110410,
                        "zipcode": 10130,
                        "latitude": 13.679,
                        "longitude": 100.578
                    },
                    {
                        "district_name": "บางพึ่ง",
                        "district_code": 110402,
                        "zipcode": 10130,
                        "latitude": 13.671,
                        "longitude": 100.52
                    },
                    {
                        "district_name": "บางยอ",
                        "district_code": 110408,
                        "zipcode": 10130,
                        "latitude": 13.679,
                        "longitude": 100.558
                    },
                    {
                        "district_name": "บางหญ้าแพรก",
                        "district_code": 110405,
                        "zipcode": 10130,
                        "latitude": 13.645,
                        "longitude": 100.546
                    },
                    {
                        "district_name": "บางหัวเสือ",
                        "district_code": 110406,
                        "zipcode": 10130,
                        "latitude": 13.625,
                        "longitude": 100.549
                    },
                    {
                        "district_name": "สำโรง",
                        "district_code": 110414,
                        "zipcode": 10130,
                        "latitude": 13.659,
                        "longitude": 100.584
                    },
                    {
                        "district_name": "สำโรงกลาง",
                        "district_code": 110415,
                        "zipcode": 10130,
                        "latitude": 13.653,
                        "longitude": 100.564
                    },
                    {
                        "district_name": "สำโรงใต้",
                        "district_code": 110407,
                        "zipcode": 10130,
                        "latitude": 13.641,
                        "longitude": 100.573
                    }
                ]
            },
            {
                "amphoe_name": "พระสมุทรเจดีย์",
                "amphoe_code": 1105,
                "districts": [
                    {
                        "district_name": "นาเกลือ",
                        "district_code": 110105,
                        "zipcode": 10290,
                        "latitude": 13.572,
                        "longitude": 100.621
                    },
                    {
                        "district_name": "บ้านคลองสวน",
                        "district_code": 110198,
                        "zipcode": 10290,
                        "latitude": 13.571,
                        "longitude": 100.476
                    },
                    {
                        "district_name": "ปากคลองบางปลากด",
                        "district_code": 110109,
                        "zipcode": 10290,
                        "latitude": 13.606,
                        "longitude": 100.567
                    },
                    {
                        "district_name": "แหลมฟ้าผ่า",
                        "district_code": 110106,
                        "zipcode": 10290,
                        "latitude": 13.539,
                        "longitude": 100.559
                    },
                    {
                        "district_name": "ในคลองบางปลากด",
                        "district_code": 110107,
                        "zipcode": 10290,
                        "latitude": 13.588,
                        "longitude": 100.541
                    }
                ]
            },
            {
                "amphoe_name": "เมืองสมุทรปราการ",
                "amphoe_code": 1101,
                "districts": [
                    {
                        "district_name": "ท้ายบ้าน",
                        "district_code": 110104,
                        "zipcode": 10280,
                        "latitude": 13.556,
                        "longitude": 100.599
                    },
                    {
                        "district_name": "ท้ายบ้านใหม่",
                        "district_code": 110116,
                        "zipcode": 10280,
                        "latitude": 13.572,
                        "longitude": 100.621
                    },
                    {
                        "district_name": "บางด้วน",
                        "district_code": 110113,
                        "zipcode": 10270,
                        "latitude": 13.622,
                        "longitude": 100.581
                    },
                    {
                        "district_name": "บางปู",
                        "district_code": 110112,
                        "zipcode": 10280,
                        "latitude": 13.51,
                        "longitude": 100.751
                    },
                    {
                        "district_name": "บางปูใหม่",
                        "district_code": 110108,
                        "zipcode": 10280,
                        "latitude": 13.526,
                        "longitude": 100.67
                    },
                    {
                        "district_name": "บางเมือง",
                        "district_code": 110103,
                        "zipcode": 10270,
                        "latitude": 13.601,
                        "longitude": 100.622
                    },
                    {
                        "district_name": "บางเมืองใหม่",
                        "district_code": 110114,
                        "zipcode": 10270,
                        "latitude": 13.622,
                        "longitude": 100.605
                    },
                    {
                        "district_name": "บางโปรง",
                        "district_code": 110111,
                        "zipcode": 10270,
                        "latitude": 13.623,
                        "longitude": 100.565
                    },
                    {
                        "district_name": "ปากน้ำ",
                        "district_code": 110101,
                        "zipcode": 10270,
                        "latitude": 13.593,
                        "longitude": 100.597
                    },
                    {
                        "district_name": "สำโรงเหนือ",
                        "district_code": 110102,
                        "zipcode": 10270,
                        "latitude": 13.649,
                        "longitude": 100.617
                    },
                    {
                        "district_name": "เทพารักษ์",
                        "district_code": 110115,
                        "zipcode": 10270,
                        "latitude": 13.634,
                        "longitude": 100.61
                    },
                    {
                        "district_name": "แพรกษา",
                        "district_code": 110110,
                        "zipcode": 10280,
                        "latitude": 13.564,
                        "longitude": 100.653
                    },
                    {
                        "district_name": "แพรกษาใหม่",
                        "district_code": 110117,
                        "zipcode": 10280,
                        "latitude": 13.559,
                        "longitude": 100.691
                    }
                ]
            }
        ]
    },
    {
        "province_name": "นนทบุรี",
        "province_code": 12,
        "amphoes": [
            {
                "amphoe_name": "บางกรวย",
                "amphoe_code": 1202,
                "districts": [
                    {
                        "district_name": "บางกรวย",
                        "district_code": 120202,
                        "zipcode": 11130,
                        "latitude": 13.809,
                        "longitude": 100.499
                    },
                    {
                        "district_name": "บางขนุน",
                        "district_code": 120204,
                        "zipcode": 11130,
                        "latitude": 13.811,
                        "longitude": 100.453
                    },
                    {
                        "district_name": "บางขุนกอง",
                        "district_code": 120205,
                        "zipcode": 11130,
                        "latitude": 13.821,
                        "longitude": 100.444
                    },
                    {
                        "district_name": "บางคูเวียง",
                        "district_code": 120206,
                        "zipcode": 11130,
                        "latitude": 13.822,
                        "longitude": 100.417
                    },
                    {
                        "district_name": "บางสีทอง",
                        "district_code": 120203,
                        "zipcode": 11130,
                        "latitude": 13.818,
                        "longitude": 100.479
                    },
                    {
                        "district_name": "ปลายบาง",
                        "district_code": 120208,
                        "zipcode": 11130,
                        "latitude": 13.814,
                        "longitude": 100.402
                    },
                    {
                        "district_name": "มหาสวัสดิ์",
                        "district_code": 120207,
                        "zipcode": 11130,
                        "latitude": 13.806,
                        "longitude": 100.434
                    },
                    {
                        "district_name": "วัดชลอ",
                        "district_code": 120201,
                        "zipcode": 11130,
                        "latitude": 13.802,
                        "longitude": 100.476
                    },
                    {
                        "district_name": "ศาลากลาง",
                        "district_code": 120209,
                        "zipcode": 11130,
                        "latitude": 13.81,
                        "longitude": 100.358
                    }
                ]
            },
            {
                "amphoe_name": "บางบัวทอง",
                "amphoe_code": 1204,
                "districts": [
                    {
                        "district_name": "บางคูรัด",
                        "district_code": 120404,
                        "zipcode": 11110,
                        "latitude": 13.907,
                        "longitude": 100.351
                    },
                    {
                        "district_name": "บางบัวทอง",
                        "district_code": 120402,
                        "zipcode": 11110,
                        "latitude": 13.944,
                        "longitude": 100.39
                    },
                    {
                        "district_name": "บางรักพัฒนา",
                        "district_code": 120408,
                        "zipcode": 11110,
                        "latitude": 13.894,
                        "longitude": 100.41
                    },
                    {
                        "district_name": "บางรักใหญ่",
                        "district_code": 120403,
                        "zipcode": 11110,
                        "latitude": 13.878,
                        "longitude": 100.438
                    },
                    {
                        "district_name": "พิมลราช",
                        "district_code": 120407,
                        "zipcode": 11110,
                        "latitude": 13.934,
                        "longitude": 100.366
                    },
                    {
                        "district_name": "ละหาร",
                        "district_code": 120405,
                        "zipcode": 11110,
                        "latitude": 13.964,
                        "longitude": 100.401
                    },
                    {
                        "district_name": "ลำโพ",
                        "district_code": 120406,
                        "zipcode": 11110,
                        "latitude": 13.97,
                        "longitude": 100.416
                    },
                    {
                        "district_name": "โสนลอย",
                        "district_code": 120401,
                        "zipcode": 11110,
                        "latitude": 13.914,
                        "longitude": 100.422
                    }
                ]
            },
            {
                "amphoe_name": "บางใหญ่",
                "amphoe_code": 1203,
                "districts": [
                    {
                        "district_name": "บางม่วง",
                        "district_code": 120301,
                        "zipcode": 11140,
                        "latitude": 13.838,
                        "longitude": 100.406
                    },
                    {
                        "district_name": "บางเลน",
                        "district_code": 120303,
                        "zipcode": 11140,
                        "latitude": 13.854,
                        "longitude": 100.434
                    },
                    {
                        "district_name": "บางแม่นาง",
                        "district_code": 120302,
                        "zipcode": 11140,
                        "latitude": 13.868,
                        "longitude": 100.381
                    },
                    {
                        "district_name": "บางใหญ่",
                        "district_code": 120305,
                        "zipcode": 11140,
                        "latitude": 13.837,
                        "longitude": 100.375
                    },
                    {
                        "district_name": "บ้านใหม่",
                        "district_code": 120306,
                        "zipcode": 11140,
                        "latitude": 13.861,
                        "longitude": 100.333
                    },
                    {
                        "district_name": "เสาธงหิน",
                        "district_code": 120304,
                        "zipcode": 11140,
                        "latitude": 13.875,
                        "longitude": 100.404
                    }
                ]
            },
            {
                "amphoe_name": "ปากเกร็ด",
                "amphoe_code": 1206,
                "districts": [
                    {
                        "district_name": "คลองข่อย",
                        "district_code": 120610,
                        "zipcode": 11120,
                        "latitude": 13.959,
                        "longitude": 100.45
                    },
                    {
                        "district_name": "คลองพระอุดม",
                        "district_code": 120606,
                        "zipcode": 11120,
                        "latitude": 13.93,
                        "longitude": 100.479
                    },
                    {
                        "district_name": "คลองเกลือ",
                        "district_code": 120612,
                        "zipcode": 11120,
                        "latitude": 13.902,
                        "longitude": 100.55
                    },
                    {
                        "district_name": "ท่าอิฐ",
                        "district_code": 120607,
                        "zipcode": 11120,
                        "latitude": 13.894,
                        "longitude": 100.48
                    },
                    {
                        "district_name": "บางตลาด",
                        "district_code": 120602,
                        "zipcode": 11120,
                        "latitude": 13.896,
                        "longitude": 100.521
                    },
                    {
                        "district_name": "บางตะไนย์",
                        "district_code": 120605,
                        "zipcode": 11120,
                        "latitude": 13.931,
                        "longitude": 100.492
                    },
                    {
                        "district_name": "บางพลับ",
                        "district_code": 120611,
                        "zipcode": 11120,
                        "latitude": 13.929,
                        "longitude": 100.458
                    },
                    {
                        "district_name": "บางพูด",
                        "district_code": 120604,
                        "zipcode": 11120,
                        "latitude": 13.927,
                        "longitude": 100.516
                    },
                    {
                        "district_name": "บ้านใหม่",
                        "district_code": 120306,
                        "zipcode": 11120,
                        "latitude": 13.861,
                        "longitude": 100.333
                    },
                    {
                        "district_name": "ปากเกร็ด",
                        "district_code": 120601,
                        "zipcode": 11120,
                        "latitude": 13.912,
                        "longitude": 100.506
                    },
                    {
                        "district_name": "อ้อมเกร็ด",
                        "district_code": 120609,
                        "zipcode": 11120,
                        "latitude": 13.909,
                        "longitude": 100.453
                    },
                    {
                        "district_name": "เกาะเกร็ด",
                        "district_code": 120608,
                        "zipcode": 11120,
                        "latitude": 13.91,
                        "longitude": 100.472
                    }
                ]
            },
            {
                "amphoe_name": "เมืองนนทบุรี",
                "amphoe_code": 1201,
                "districts": [
                    {
                        "district_name": "ตลาดขวัญ",
                        "district_code": 120102,
                        "zipcode": 11000,
                        "latitude": 13.85,
                        "longitude": 100.509
                    },
                    {
                        "district_name": "ท่าทราย",
                        "district_code": 120105,
                        "zipcode": 11000,
                        "latitude": 13.884,
                        "longitude": 100.501
                    },
                    {
                        "district_name": "บางกระสอ",
                        "district_code": 120104,
                        "zipcode": 11000,
                        "latitude": 13.869,
                        "longitude": 100.491
                    },
                    {
                        "district_name": "บางกร่าง",
                        "district_code": 120108,
                        "zipcode": 11000,
                        "latitude": 13.835,
                        "longitude": 100.438
                    },
                    {
                        "district_name": "บางรักน้อย",
                        "district_code": 120110,
                        "zipcode": 11000,
                        "latitude": 13.859,
                        "longitude": 100.464
                    },
                    {
                        "district_name": "บางศรีเมือง",
                        "district_code": 120107,
                        "zipcode": 11000,
                        "latitude": 13.841,
                        "longitude": 100.475
                    },
                    {
                        "district_name": "บางเขน",
                        "district_code": 120103,
                        "zipcode": 11000,
                        "latitude": 13.835,
                        "longitude": 100.516
                    },
                    {
                        "district_name": "บางไผ่",
                        "district_code": 120106,
                        "zipcode": 11000,
                        "latitude": 13.823,
                        "longitude": 100.492
                    },
                    {
                        "district_name": "สวนใหญ่",
                        "district_code": 120101,
                        "zipcode": 11000,
                        "latitude": 13.842,
                        "longitude": 100.494
                    },
                    {
                        "district_name": "ไทรม้า",
                        "district_code": 120109,
                        "zipcode": 11000,
                        "latitude": 13.87,
                        "longitude": 100.472
                    }
                ]
            },
            {
                "amphoe_name": "ไทรน้อย",
                "amphoe_code": 1205,
                "districts": [
                    {
                        "district_name": "ขุนศรี",
                        "district_code": 120505,
                        "zipcode": 11150,
                        "latitude": 14.005,
                        "longitude": 100.287
                    },
                    {
                        "district_name": "คลองขวาง",
                        "district_code": 120506,
                        "zipcode": 11150,
                        "latitude": 14.004,
                        "longitude": 100.306
                    },
                    {
                        "district_name": "ทวีวัฒนา",
                        "district_code": 120507,
                        "zipcode": 11150,
                        "latitude": 13.942,
                        "longitude": 100.312
                    },
                    {
                        "district_name": "ราษฎร์นิยม",
                        "district_code": 120502,
                        "zipcode": 11150,
                        "latitude": 14.088,
                        "longitude": 100.329
                    },
                    {
                        "district_name": "หนองเพรางาย",
                        "district_code": 120503,
                        "zipcode": 11150,
                        "latitude": 13.906,
                        "longitude": 100.322
                    },
                    {
                        "district_name": "ไทรน้อย",
                        "district_code": 120501,
                        "zipcode": 11150,
                        "latitude": 13.976,
                        "longitude": 100.344
                    },
                    {
                        "district_name": "ไทรใหญ่",
                        "district_code": 120504,
                        "zipcode": 11150,
                        "latitude": 14.085,
                        "longitude": 100.292
                    }
                ]
            }
        ]
    },
    {
        "province_name": "ปทุมธานี",
        "province_code": 13,
        "amphoes": [
            {
                "amphoe_name": "คลองหลวง",
                "amphoe_code": 1302,
                "districts": [
                    {
                        "district_name": "คลองสอง",
                        "district_code": 130202,
                        "zipcode": 12120,
                        "latitude": 14.079,
                        "longitude": 100.642
                    },
                    {
                        "district_name": "คลองสาม",
                        "district_code": 130203,
                        "zipcode": 12120,
                        "latitude": 14.087,
                        "longitude": 100.664
                    },
                    {
                        "district_name": "คลองสี่",
                        "district_code": 130204,
                        "zipcode": 12120,
                        "latitude": 14.097,
                        "longitude": 100.687
                    },
                    {
                        "district_name": "คลองหก",
                        "district_code": 130206,
                        "zipcode": 12120,
                        "latitude": 14.117,
                        "longitude": 100.733
                    },
                    {
                        "district_name": "คลองหนึ่ง",
                        "district_code": 130201,
                        "zipcode": 12120,
                        "latitude": 14.066,
                        "longitude": 100.607
                    },
                    {
                        "district_name": "คลองห้า",
                        "district_code": 130205,
                        "zipcode": 12120,
                        "latitude": 14.106,
                        "longitude": 100.71
                    },
                    {
                        "district_name": "คลองเจ็ด",
                        "district_code": 130207,
                        "zipcode": 12120,
                        "latitude": 14.125,
                        "longitude": 100.75
                    }
                ]
            },
            {
                "amphoe_name": "ธัญบุรี",
                "amphoe_code": 1303,
                "districts": [
                    {
                        "district_name": "บึงน้ำรักษ์",
                        "district_code": 130306,
                        "zipcode": 12110,
                        "latitude": 14.071,
                        "longitude": 100.88
                    },
                    {
                        "district_name": "บึงยี่โถ",
                        "district_code": 130302,
                        "zipcode": 12130,
                        "latitude": 13.999,
                        "longitude": 100.687
                    },
                    {
                        "district_name": "บึงสนั่น",
                        "district_code": 130305,
                        "zipcode": 12110,
                        "latitude": 14.052,
                        "longitude": 100.824
                    },
                    {
                        "district_name": "ประชาธิปัตย์",
                        "district_code": 130301,
                        "zipcode": 12130,
                        "latitude": 13.987,
                        "longitude": 100.632
                    },
                    {
                        "district_name": "รังสิต",
                        "district_code": 130303,
                        "zipcode": 12110,
                        "latitude": 14.018,
                        "longitude": 100.731
                    },
                    {
                        "district_name": "ลำผักกูด",
                        "district_code": 130304,
                        "zipcode": 12110,
                        "latitude": 14.036,
                        "longitude": 100.779
                    }
                ]
            },
            {
                "amphoe_name": "ลาดหลุมแก้ว",
                "amphoe_code": 1305,
                "districts": [
                    {
                        "district_name": "คลองพระอุดม",
                        "district_code": 130505,
                        "zipcode": 12140,
                        "latitude": 13.99,
                        "longitude": 100.449
                    },
                    {
                        "district_name": "คูขวาง",
                        "district_code": 130504,
                        "zipcode": 12140,
                        "latitude": 14.068,
                        "longitude": 100.437
                    },
                    {
                        "district_name": "คูบางหลวง",
                        "district_code": 130503,
                        "zipcode": 12140,
                        "latitude": 14.047,
                        "longitude": 100.467
                    },
                    {
                        "district_name": "บ่อเงิน",
                        "district_code": 130506,
                        "zipcode": 12140,
                        "latitude": 14.102,
                        "longitude": 100.383
                    },
                    {
                        "district_name": "ระแหง",
                        "district_code": 130501,
                        "zipcode": 12140,
                        "latitude": 14.059,
                        "longitude": 100.396
                    },
                    {
                        "district_name": "ลาดหลุมแก้ว",
                        "district_code": 130502,
                        "zipcode": 12140,
                        "latitude": 14.006,
                        "longitude": 100.41
                    },
                    {
                        "district_name": "หน้าไม้",
                        "district_code": 130507,
                        "zipcode": 12140,
                        "latitude": 14.034,
                        "longitude": 100.359
                    }
                ]
            },
            {
                "amphoe_name": "ลำลูกกา",
                "amphoe_code": 1306,
                "districts": [
                    {
                        "district_name": "คูคต",
                        "district_code": 130601,
                        "zipcode": 12130,
                        "latitude": 13.955,
                        "longitude": 100.641
                    },
                    {
                        "district_name": "บึงคอไห",
                        "district_code": 130607,
                        "zipcode": 12150,
                        "latitude": 14.029,
                        "longitude": 100.862
                    },
                    {
                        "district_name": "บึงคำพร้อย",
                        "district_code": 130603,
                        "zipcode": 12150,
                        "latitude": 13.961,
                        "longitude": 100.731
                    },
                    {
                        "district_name": "บึงทองหลาง",
                        "district_code": 130605,
                        "zipcode": 12150,
                        "latitude": 13.984,
                        "longitude": 100.82
                    },
                    {
                        "district_name": "พืชอุดม",
                        "district_code": 130608,
                        "zipcode": 12150,
                        "latitude": 13.975,
                        "longitude": 100.896
                    },
                    {
                        "district_name": "ลาดสวาย",
                        "district_code": 130602,
                        "zipcode": 12150,
                        "latitude": 13.958,
                        "longitude": 100.685
                    },
                    {
                        "district_name": "ลำลูกกา",
                        "district_code": 130604,
                        "zipcode": 12150,
                        "latitude": 13.972,
                        "longitude": 100.774
                    },
                    {
                        "district_name": "ลำไทร",
                        "district_code": 130606,
                        "zipcode": 12150,
                        "latitude": 13.973,
                        "longitude": 100.861
                    }
                ]
            },
            {
                "amphoe_name": "สามโคก",
                "amphoe_code": 1307,
                "districts": [
                    {
                        "district_name": "กระแชง",
                        "district_code": 130704,
                        "zipcode": 12160,
                        "latitude": 14.043,
                        "longitude": 100.544
                    },
                    {
                        "district_name": "คลองควาย",
                        "district_code": 130702,
                        "zipcode": 12160,
                        "latitude": 14.097,
                        "longitude": 100.478
                    },
                    {
                        "district_name": "ท้ายเกาะ",
                        "district_code": 130711,
                        "zipcode": 12160,
                        "latitude": 14.105,
                        "longitude": 100.496
                    },
                    {
                        "district_name": "บางกระบือ",
                        "district_code": 130710,
                        "zipcode": 12160,
                        "latitude": 14.103,
                        "longitude": 100.538
                    },
                    {
                        "district_name": "บางเตย",
                        "district_code": 130701,
                        "zipcode": 12160,
                        "latitude": 14.062,
                        "longitude": 100.504
                    },
                    {
                        "district_name": "บางโพธิ์เหนือ",
                        "district_code": 130705,
                        "zipcode": 12160,
                        "latitude": 14.042,
                        "longitude": 100.515
                    },
                    {
                        "district_name": "บ้านงิ้ว",
                        "district_code": 130708,
                        "zipcode": 12160,
                        "latitude": 14.084,
                        "longitude": 100.539
                    },
                    {
                        "district_name": "บ้านปทุม",
                        "district_code": 130707,
                        "zipcode": 12160,
                        "latitude": 14.067,
                        "longitude": 100.546
                    },
                    {
                        "district_name": "สามโคก",
                        "district_code": 130703,
                        "zipcode": 12160,
                        "latitude": 14.052,
                        "longitude": 100.529
                    },
                    {
                        "district_name": "เชียงรากน้อย",
                        "district_code": 130709,
                        "zipcode": 12160,
                        "latitude": 14.105,
                        "longitude": 100.567
                    },
                    {
                        "district_name": "เชียงรากใหญ่",
                        "district_code": 130706,
                        "zipcode": 12160,
                        "latitude": 14.057,
                        "longitude": 100.574
                    }
                ]
            },
            {
                "amphoe_name": "หนองเสือ",
                "amphoe_code": 1304,
                "districts": [
                    {
                        "district_name": "นพรัตน์",
                        "district_code": 130407,
                        "zipcode": 12170,
                        "latitude": 14.223,
                        "longitude": 100.866
                    },